,City Name,Country,Latitude,Longitude,Date,Temperature,Humidity,Wind Speed,Clouds
0,tala,MX,20.65,-103.7,2019-04-09,69.8,13.0,2.39,5.0
1,general roca,AR,-39.03,-67.58,2019-04-09,66.2,55.0,8.05,0.0
2,bambous virieux,MU,-20.34,57.76,2019-04-09,75.2,94.0,8.05,75.0
3,sitka,US,37.17,-99.65,2019-04-09,71.01,51.0,13.0,12.0
4,kruisfontein,ZA,-34.0,24.73,2019-04-09,63.15,81.0,12.35,36.0
5,kondinskoye,RU,59.65,67.41,2019-04-09,31.11,75.0,3.96,20.0
6,yellowknife,CA,62.45,-114.38,2019-04-09,39.2,69.0,5.82,20.0
7,bethel,US,60.79,-161.76,2019-04-09,37.4,51.0,9.17,75.0
8,vaini,IN,15.34,74.49,2019-04-09,78.8,61.0,3.36,0.0
9,souillac,FR,45.6,-0.6,2019-04-09,44.01,93.0,4.18,0.0
10,aldan,RU,58.61,125.39,2019-04-09,30.66,60.0,6.76,48.0
11,touros,BR,-5.2,-35.46,2019-04-09,75.2,94.0,3.36,20.0
12,jamestown,AU,-33.21,138.6,2019-04-09,60.0,49.0,8.77,0.0
13,dingle,PH,11.0,122.67,2019-04-09,86.73,69.0,5.75,48.0
14,keti bandar,PK,24.14,67.45,2019-04-09,79.53,97.0,11.01,0.0
15,puerto ayora,EC,-0.74,-90.35,2019-04-09,78.01,94.0,7.99,88.0
16,butaritari,KI,3.07,172.79,2019-04-09,80.97,100.0,11.45,68.0
17,smithers,CA,54.78,-127.17,2019-04-09,46.4,52.0,2.24,75.0
18,labuhan,ID,-2.54,115.51,2019-04-09,84.48,79.0,1.95,48.0
19,lingdong,CN,28.06,114.24,2019-04-09,54.15,100.0,3.4,100.0
20,lobva,RU,59.19,60.52,2019-04-09,32.46,80.0,3.62,12.0
21,atuona,PF,-9.8,-139.03,2019-04-09,83.67,100.0,6.64,20.0
22,srednekolymsk,RU,67.46,153.71,2019-04-09,30.57,66.0,3.29,0.0
23,kalanguy,RU,51.01,116.52,2019-04-09,42.36,42.0,4.29,0.0
24,khatanga,RU,71.98,102.47,2019-04-09,4.65,85.0,10.45,32.0
25,ushuaia,AR,-54.81,-68.31,2019-04-09,42.8,87.0,16.11,40.0
26,port blair,IN,11.67,92.75,2019-04-09,86.0,74.0,2.24,40.0
27,mahebourg,MU,-20.41,57.7,2019-04-09,75.2,94.0,8.05,75.0
28,richards bay,ZA,-28.77,32.06,2019-04-09,65.04,100.0,3.96,56.0
29,kasongo-lunda,CD,-6.48,16.82,2019-04-09,71.25,97.0,2.17,80.0
30,mataura,NZ,-46.19,168.86,2019-04-09,53.01,96.0,9.44,92.0
31,longyearbyen,NO,78.22,15.63,2019-04-09,25.35,91.0,4.07,92.0
32,mar del plata,AR,-46.43,-67.52,2019-04-09,54.6,62.0,9.55,0.0
33,cayenne,GF,4.94,-52.33,2019-04-09,75.2,94.0,6.08,75.0
34,busselton,AU,-33.64,115.35,2019-04-09,80.01,33.0,3.96,0.0
35,hervey bay,AU,-25.3,152.85,2019-04-09,87.01,40.0,9.17,20.0
36,saint-philippe,CA,45.36,-73.48,2019-04-09,30.2,86.0,12.75,90.0
37,rikitea,PF,-23.12,-134.97,2019-04-09,75.3,100.0,11.23,92.0
38,salalah,OM,17.01,54.1,2019-04-09,78.8,78.0,1.12,40.0
39,saint anthony,US,43.97,-111.68,2019-04-09,39.2,86.0,9.17,90.0
40,hermanus,ZA,-34.42,19.24,2019-04-09,68.0,87.0,5.99,12.0
41,ponta do sol,BR,-20.63,-46.0,2019-04-09,63.87,97.0,3.74,92.0
42,tuktoyaktuk,CA,69.44,-133.03,2019-04-09,5.0,84.0,9.17,90.0
43,hilo,US,19.71,-155.08,2019-04-09,77.0,69.0,6.93,40.0
44,qazvin,IR,36.28,50.01,2019-04-09,42.8,93.0,2.24,0.0
45,luanda,AO,-8.83,13.24,2019-04-09,78.8,88.0,5.82,75.0
46,te anau,NZ,-45.41,167.72,2019-04-09,46.77,100.0,2.84,92.0
47,dikson,RU,73.51,80.55,2019-04-09,17.97,100.0,21.52,76.0
48,victoria,BN,5.28,115.24,2019-04-09,91.4,79.0,3.36,75.0
49,makaleng,BW,-20.8,27.27,2019-04-09,63.87,67.0,9.78,8.0
50,enkhuizen,NL,52.7,5.29,2019-04-09,42.01,100.0,18.34,0.0
51,honiara,SB,-9.43,159.96,2019-04-09,77.01,100.0,2.84,88.0
52,hobart,AU,-42.88,147.33,2019-04-09,61.0,41.0,10.29,75.0
53,albany,US,42.65,-73.75,2019-04-09,46.99,65.0,19.46,90.0
54,naze,NG,5.43,7.07,2019-04-09,76.65,91.0,3.4,48.0
55,tuatapere,NZ,-46.13,167.69,2019-04-09,53.01,96.0,7.87,92.0
56,northam,GB,51.04,-4.21,2019-04-09,43.0,85.0,7.0,64.0
57,ciudad bolivar,VE,8.12,-63.55,2019-04-09,84.48,41.0,16.49,0.0
58,cabo san lucas,MX,22.89,-109.91,2019-04-09,84.2,14.0,10.29,5.0
59,cherskiy,RU,68.75,161.3,2019-04-09,28.23,76.0,5.3,56.0
60,byron bay,AU,-28.65,153.62,2019-04-09,79.0,88.0,14.99,90.0
61,vestmanna,FO,62.16,-7.17,2019-04-09,39.2,100.0,2.24,76.0
62,east london,ZA,-33.02,27.91,2019-04-09,66.2,88.0,5.82,0.0
63,saskylakh,RU,71.97,114.09,2019-04-09,7.8,88.0,4.63,8.0
64,nhulunbuy,AU,-12.18,136.78,2019-04-09,86.0,62.0,17.22,75.0
65,lebu,ET,8.96,38.73,2019-04-09,55.68,75.0,3.96,44.0
66,auki,NG,12.18,6.51,2019-04-09,78.99,57.0,9.33,0.0
67,narsaq,GL,60.91,-46.05,2019-04-09,50.0,31.0,33.33,32.0
68,grindavik,IS,63.84,-22.43,2019-04-09,41.0,69.0,14.99,90.0
69,rohnert park,US,38.34,-122.7,2019-04-09,61.0,71.0,6.93,1.0
70,fengzhen,CN,40.43,113.15,2019-04-09,43.71,58.0,4.18,48.0
71,alice springs,AU,-23.7,133.88,2019-04-09,84.2,23.0,12.75,0.0
72,cape town,ZA,-33.93,18.42,2019-04-09,69.01,87.0,4.7,0.0
73,karratha,AU,-20.74,116.85,2019-04-09,94.2,39.0,2.51,44.0
74,nanortalik,GL,60.14,-45.24,2019-04-09,35.61,85.0,41.43,24.0
75,edson,CA,53.59,-116.44,2019-04-09,41.0,74.0,6.93,20.0
76,new norfolk,AU,-42.78,147.06,2019-04-09,60.8,41.0,10.29,75.0
77,avarua,CK,-21.21,-159.78,2019-04-09,80.6,65.0,8.05,0.0
78,dunedin,NZ,-45.87,170.5,2019-04-09,55.99,97.0,10.45,92.0
79,clyde river,CA,70.47,-68.59,2019-04-09,-7.61,83.0,3.36,1.0
80,saint george,GR,39.45,22.34,2019-04-09,55.0,93.0,3.85,75.0
81,sur,OM,22.57,59.53,2019-04-09,80.97,84.0,4.41,0.0
82,qaanaaq,GL,77.48,-69.36,2019-04-09,13.74,90.0,4.74,68.0
83,barrow,AR,-38.31,-60.23,2019-04-09,67.2,57.0,8.77,64.0
84,mucurapo,TT,10.67,-61.53,2019-04-09,77.0,83.0,5.82,20.0
85,machala,EC,-3.26,-79.96,2019-04-09,89.6,33.0,3.36,75.0
86,esperance,TT,10.24,-61.45,2019-04-09,77.0,83.0,5.82,20.0
87,yamaranguila,HN,14.28,-88.24,2019-04-09,69.8,94.0,5.82,90.0
88,bluff,AU,-23.58,149.07,2019-04-09,86.19,46.0,4.74,48.0
89,causapscal,CA,48.35,-67.23,2019-04-09,30.0,59.0,4.0,92.0
90,tasiilaq,GL,65.61,-37.64,2019-04-09,37.4,59.0,14.99,92.0
91,stolin,BY,51.89,26.85,2019-04-09,41.1,56.0,13.24,0.0
92,nago,IT,45.88,10.89,2019-04-09,54.0,81.0,5.82,40.0
93,port alfred,ZA,-33.59,26.89,2019-04-09,62.01,96.0,16.49,80.0
94,carnarvon,ZA,-30.97,22.13,2019-04-09,47.67,45.0,6.42,20.0
95,faanui,PF,-16.48,-151.75,2019-04-09,83.58,100.0,6.08,88.0
96,vila velha,BR,-3.71,-38.6,2019-04-09,81.0,83.0,3.36,20.0
97,thompson,CA,55.74,-97.86,2019-04-09,26.6,49.0,3.36,40.0
98,baykit,RU,61.68,96.39,2019-04-09,25.98,79.0,11.68,80.0
99,hithadhoo,MV,-0.6,73.08,2019-04-09,84.75,100.0,6.08,64.0
100,coffeyville,US,37.04,-95.62,2019-04-09,73.4,46.0,11.41,1.0
101,saldanha,PT,41.42,-6.55,2019-04-09,43.8,89.0,10.45,92.0
102,punta arenas,CL,-53.16,-70.91,2019-04-09,37.4,86.0,10.29,20.0
103,castro,CL,-42.48,-73.76,2019-04-09,50.0,87.0,9.17,90.0
104,kavieng,PG,-2.57,150.8,2019-04-09,83.58,100.0,3.96,0.0
105,broken hill,AU,-31.97,141.45,2019-04-09,64.4,31.0,9.17,12.0
106,corrales,CO,5.83,-72.84,2019-04-09,51.81,96.0,0.94,92.0
107,upernavik,GL,72.79,-56.15,2019-04-09,20.22,100.0,17.83,80.0
108,alpena,US,45.06,-83.43,2019-04-09,36.0,93.0,11.41,90.0
109,georgetown,GY,6.8,-58.16,2019-04-09,77.0,83.0,4.7,0.0
110,slave lake,CA,55.28,-114.77,2019-04-09,48.2,45.0,3.36,90.0
111,brae,GB,60.4,-1.35,2019-04-09,42.8,65.0,16.11,68.0
112,nikolskoye,RU,59.7,30.79,2019-04-09,35.01,92.0,4.47,40.0
113,najran,SA,17.54,44.22,2019-04-09,75.2,50.0,2.62,0.0
114,jati,PK,24.35,68.27,2019-04-09,79.17,75.0,10.89,0.0
115,uddevalla,SE,58.35,11.94,2019-04-09,33.8,74.0,17.22,32.0
116,aguimes,ES,27.91,-15.45,2019-04-09,63.0,59.0,19.46,75.0
117,bredasdorp,ZA,-34.53,20.04,2019-04-09,68.0,88.0,4.7,12.0
118,klaksvik,FO,62.23,-6.59,2019-04-09,39.2,100.0,2.24,88.0
119,cove,US,29.8,-94.84,2019-04-09,75.99,53.0,6.2,1.0
120,san patricio,PY,-26.98,-56.83,2019-04-09,67.74,92.0,3.18,0.0
121,belmonte,PT,40.36,-7.35,2019-04-09,44.01,90.0,1.01,36.0
122,fuerte olimpo,BR,-21.04,-57.87,2019-04-09,65.67,82.0,4.18,0.0
123,sevsk,RU,52.15,34.49,2019-04-09,47.04,87.0,3.18,92.0
124,luderitz,NA,-26.65,15.16,2019-04-09,53.88,93.0,6.76,44.0
125,college,US,64.86,-147.8,2019-04-09,51.8,37.0,8.05,75.0
126,leh,IN,34.16,77.58,2019-04-09,13.38,90.0,1.95,88.0
127,tarrafal,CV,15.28,-23.77,2019-04-09,69.8,83.0,17.22,20.0
128,kapaa,US,22.08,-159.32,2019-04-09,80.6,69.0,16.11,40.0
129,lulea,SE,65.58,22.15,2019-04-09,23.0,67.0,8.05,36.0
130,ust-ilimsk,RU,57.96,102.73,2019-04-09,39.48,51.0,5.97,80.0
131,arraial do cabo,BR,-22.97,-42.02,2019-04-09,73.86,100.0,12.35,92.0
132,iqaluit,CA,63.75,-68.52,2019-04-09,-4.01,76.0,21.92,5.0
133,koslan,RU,63.46,48.9,2019-04-09,28.41,82.0,8.77,80.0
134,yuksekova,TR,37.57,44.29,2019-04-09,41.0,80.0,4.7,75.0
135,severo-kurilsk,RU,50.68,156.12,2019-04-09,32.73,93.0,7.43,36.0
136,samarai,PG,-10.62,150.67,2019-04-09,83.04,99.0,11.34,24.0
137,qaqortoq,GL,60.72,-46.03,2019-04-09,50.0,31.0,33.33,12.0
138,gigmoto,PH,13.78,124.39,2019-04-09,81.78,95.0,8.77,92.0
139,soledad,US,36.43,-121.33,2019-04-09,57.99,67.0,13.87,1.0
140,pangody,RU,65.85,74.49,2019-04-09,14.28,90.0,17.16,64.0
141,fort saint james,CA,54.43,-124.25,2019-04-09,42.0,52.0,7.65,68.0
142,coquimbo,CL,-29.95,-71.34,2019-04-09,51.8,87.0,3.36,0.0
143,quibor,VE,9.93,-69.62,2019-04-09,73.05,53.0,5.64,12.0
144,lompoc,US,34.64,-120.46,2019-04-09,61.0,71.0,13.87,1.0
145,sao filipe,CV,14.9,-24.5,2019-04-09,71.61,96.0,15.93,0.0
146,rio grande,BR,-32.03,-52.1,2019-04-09,67.56,94.0,15.14,0.0
147,tungor,RU,53.39,142.95,2019-04-09,29.58,99.0,14.03,0.0
148,sangar,RU,63.92,127.47,2019-04-09,24.63,45.0,4.97,0.0
149,ataco,CO,3.59,-75.38,2019-04-09,61.44,91.0,2.95,92.0
150,kitui,KE,-1.37,38.02,2019-04-09,64.32,96.0,3.18,76.0
151,mbarara,UG,-0.61,30.65,2019-04-09,60.9,99.0,3.74,92.0
152,san quintin,PH,17.54,120.52,2019-04-09,88.08,63.0,4.63,8.0
153,ribeira grande,PT,38.52,-28.7,2019-04-09,62.25,95.0,22.08,100.0
154,la paz,MX,24.15,-110.32,2019-04-09,78.8,34.0,9.17,5.0
155,williston,US,48.15,-103.62,2019-04-09,39.2,69.0,8.05,1.0
156,adrar,DZ,27.87,-0.29,2019-04-09,66.2,17.0,10.29,0.0
157,port elizabeth,US,39.31,-74.98,2019-04-09,62.01,100.0,6.93,90.0
158,evensk,RU,61.92,159.24,2019-04-09,31.29,89.0,3.18,0.0
159,turukhansk,RU,65.8,87.96,2019-04-09,10.59,90.0,21.07,64.0
160,san juan,PR,18.47,-66.12,2019-04-09,78.8,73.0,13.91,20.0
161,sorland,NO,67.67,12.69,2019-04-09,21.2,73.0,4.7,0.0
162,vaitape,PF,-16.52,-151.75,2019-04-09,83.58,100.0,8.32,100.0
163,bay city,US,43.59,-83.89,2019-04-09,44.6,65.0,10.29,90.0
164,toba,JP,34.47,136.83,2019-04-09,48.99,93.0,8.05,75.0
165,palu,ID,-0.9,119.87,2019-04-09,75.03,95.0,2.17,36.0
166,marijampole,LT,54.57,23.35,2019-04-09,28.4,79.0,3.36,0.0
167,liverpool,GB,53.41,-2.98,2019-04-09,39.99,80.0,8.05,0.0
168,ancud,CL,-41.87,-73.83,2019-04-09,50.0,87.0,9.17,90.0
169,cidreira,BR,-30.17,-50.22,2019-04-09,66.3,87.0,12.68,8.0
170,broome,GB,52.47,1.45,2019-04-09,44.01,75.0,10.29,64.0
171,olinda,EC,-2.03,-79.75,2019-04-09,82.0,69.0,12.75,0.0
172,sobolevo,RU,54.43,31.9,2019-04-09,34.26,80.0,7.76,36.0
173,camabatela,AO,-8.19,15.37,2019-04-09,67.38,96.0,3.06,64.0
174,cartagena,ES,37.63,-1.0,2019-04-09,54.0,71.0,5.82,0.0
175,pangnirtung,CA,66.15,-65.72,2019-04-09,6.81,93.0,7.31,48.0
176,itarema,BR,-2.92,-39.92,2019-04-09,77.46,96.0,3.29,92.0
177,airai,TL,-8.93,125.41,2019-04-09,84.93,55.0,1.16,32.0
178,avera,US,33.19,-82.53,2019-04-09,69.8,96.0,3.36,40.0
179,yumen,CN,40.29,97.04,2019-04-09,42.18,53.0,7.99,0.0
180,torbay,CA,47.66,-52.73,2019-04-09,30.99,68.0,6.93,75.0
181,ambilobe,MG,-13.19,49.05,2019-04-09,73.05,86.0,1.72,48.0
182,los llanos de aridane,ES,28.66,-17.92,2019-04-09,62.6,77.0,12.75,0.0
183,rocha,UY,-34.48,-54.34,2019-04-09,60.0,85.0,10.0,0.0
184,mildura,AU,-34.18,142.16,2019-04-09,64.99,66.0,4.7,0.0
185,kamaishi,JP,39.28,141.86,2019-04-09,50.0,39.0,5.82,75.0
186,guerrero negro,MX,27.97,-114.04,2019-04-09,62.07,92.0,11.79,12.0
187,mezen,RU,65.85,44.24,2019-04-09,20.31,78.0,9.1,24.0
188,buncrana,GB,55.14,-7.45,2019-04-09,40.83,92.0,9.66,0.0
189,san francisco,US,37.78,-122.42,2019-04-09,60.8,81.0,19.46,90.0
190,yulara,AU,-25.24,130.99,2019-04-09,87.8,20.0,8.05,0.0
191,vardo,US,39.62,-77.74,2019-04-09,61.0,30.0,8.05,1.0
192,griffith,AU,-34.29,146.06,2019-04-09,66.2,32.0,6.93,0.0
193,bandarbeyla,SO,9.49,50.81,2019-04-09,81.33,100.0,10.45,92.0
194,walvis bay,NA,-22.95,14.51,2019-04-09,55.99,93.0,2.24,90.0
195,ningyang,CN,35.76,116.79,2019-04-09,53.16,68.0,5.41,8.0
196,makat,KZ,47.65,53.35,2019-04-09,46.77,73.0,9.78,0.0
197,tura,IN,25.52,90.21,2019-04-09,68.46,91.0,3.96,36.0
198,chapais,CA,49.78,-74.86,2019-04-09,19.4,48.0,10.29,1.0
199,norman wells,CA,65.28,-126.83,2019-04-09,26.6,63.0,10.29,75.0
200,hamilton,BM,32.3,-64.78,2019-04-09,69.8,77.0,14.99,75.0
201,nanakuli,US,21.39,-158.15,2019-04-09,84.2,65.0,14.99,40.0
202,mehamn,NO,71.03,27.85,2019-04-09,28.4,74.0,17.22,0.0
203,synya,RU,65.37,58.04,2019-04-09,11.85,75.0,6.08,0.0
204,humaita,AR,-24.93,-65.37,2019-04-09,66.2,93.0,2.17,40.0
205,maracaju,BR,-21.61,-55.17,2019-04-09,62.52,84.0,6.2,0.0
206,preobrazheniye,RU,42.9,133.91,2019-04-09,46.23,45.0,2.39,88.0
207,marsa matruh,EG,31.35,27.25,2019-04-09,51.8,87.0,3.36,0.0
208,savonlinna,FI,61.87,28.88,2019-04-09,26.6,86.0,9.17,90.0
209,harwich,US,41.69,-70.08,2019-04-09,41.0,100.0,8.05,90.0
210,lincoln,GB,53.23,-0.54,2019-04-09,39.99,80.0,8.05,0.0
211,tiksi,RU,71.64,128.87,2019-04-09,10.23,78.0,13.8,8.0
212,hofn,IS,64.25,-15.21,2019-04-09,38.76,100.0,5.19,92.0
213,sao sebastiao,BR,-3.15,-58.36,2019-04-09,76.2,94.0,4.85,64.0
214,ilulissat,GL,69.22,-51.1,2019-04-09,24.8,100.0,2.24,12.0
215,lodja,CD,-3.52,23.6,2019-04-09,73.05,94.0,2.06,80.0
216,liberal,US,37.04,-100.92,2019-04-09,71.6,46.0,17.22,1.0
217,omboue,GA,-1.57,9.26,2019-04-09,82.5,100.0,3.74,88.0
218,tomaszow mazowiecki,PL,51.53,20.01,2019-04-09,35.01,69.0,9.17,75.0
219,provideniya,RU,64.42,-173.23,2019-04-09,23.0,79.0,6.71,90.0
220,dubbo,AU,-32.25,148.6,2019-04-09,71.6,30.0,12.75,0.0
221,contamana,PE,-7.35,-75.01,2019-04-09,77.73,81.0,1.61,0.0
222,penzance,GB,50.12,-5.53,2019-04-09,52.0,93.0,10.29,92.0
223,kenai,US,60.55,-151.26,2019-04-09,46.4,56.0,6.93,40.0
224,isangel,VU,-19.55,169.27,2019-04-09,86.0,70.0,3.36,40.0
225,hokitika,NZ,-42.72,170.96,2019-04-09,62.07,99.0,18.05,92.0
226,tiznit,MA,29.7,-9.73,2019-04-09,56.58,90.0,3.06,0.0
227,chokurdakh,RU,70.62,147.9,2019-04-09,20.31,98.0,16.49,76.0
228,tralee,US,37.56,-81.4,2019-04-09,59.0,76.0,3.62,1.0
229,kaitangata,NZ,-46.28,169.85,2019-04-09,55.0,84.0,7.0,92.0
230,talnakh,RU,69.49,88.39,2019-04-09,6.9,90.0,18.5,68.0
231,aklavik,CA,68.22,-135.01,2019-04-09,8.6,71.0,5.82,90.0
232,kloulklubed,PW,7.04,134.26,2019-04-09,87.8,66.0,6.93,75.0
233,zhezkazgan,KZ,47.8,67.71,2019-04-09,44.6,86.0,8.95,0.0
234,sao joao da barra,BR,-21.64,-41.05,2019-04-09,75.57,100.0,19.51,92.0
235,darnah,LY,32.77,22.64,2019-04-09,60.9,98.0,16.37,48.0
236,laguna,MX,27.52,-110.01,2019-04-09,77.91,47.0,2.39,0.0
237,kamenka,RU,53.19,44.05,2019-04-09,36.6,93.0,10.33,68.0
238,kirakira,SB,-10.46,161.92,2019-04-09,80.61,100.0,12.68,92.0
239,chisinau,MD,47.01,28.86,2019-04-09,46.4,93.0,2.24,0.0
240,dong hoi,VN,17.48,106.6,2019-04-09,82.5,91.0,3.51,8.0
241,gambela,ET,8.25,34.59,2019-04-09,61.53,85.0,1.39,20.0
242,kodiak,US,39.95,-94.76,2019-04-09,66.99,42.0,10.29,1.0
243,pimentel,BR,-3.7,-45.5,2019-04-09,74.67,96.0,2.62,92.0
244,honghu,CN,29.82,113.46,2019-04-09,52.71,75.0,9.78,80.0
245,gisborne,NZ,-38.66,178.02,2019-04-09,78.01,50.0,1.99,0.0
246,kulhudhuffushi,MV,6.62,73.07,2019-04-09,85.11,100.0,2.73,32.0
247,ariquemes,BR,-9.91,-63.03,2019-04-09,74.58,93.0,1.72,56.0
248,son la,VN,21.32,103.9,2019-04-09,85.74,48.0,2.39,0.0
249,axim,GH,4.87,-2.24,2019-04-09,82.95,97.0,10.45,0.0
250,mapiripan,CO,2.89,-72.13,2019-04-09,76.65,86.0,1.5,76.0
251,mizdah,LY,31.45,12.98,2019-04-09,51.63,56.0,6.2,20.0
252,north platte,US,41.12,-100.77,2019-04-09,63.0,67.0,13.87,1.0
253,burdur,TR,37.72,30.29,2019-04-09,46.4,86.0,7.43,75.0
254,darhan,MN,49.49,105.92,2019-04-09,45.15,38.0,10.0,0.0
255,khandwa,IN,21.82,76.36,2019-04-09,84.48,29.0,5.75,0.0
256,goderich,CA,43.74,-81.71,2019-04-09,37.99,90.0,10.67,64.0
257,mimoso do sul,BR,-21.07,-41.37,2019-04-09,68.73,100.0,3.74,100.0
258,tamboril,BR,-4.83,-40.32,2019-04-09,69.36,97.0,2.06,80.0
259,kupang,ID,-10.16,123.6,2019-04-09,86.0,74.0,4.7,75.0
260,siyabuswa,ZA,-25.11,29.06,2019-04-09,57.48,83.0,3.74,64.0
261,leshukonskoye,RU,64.9,45.76,2019-04-09,26.61,73.0,10.33,92.0
262,seydi,NE,13.34,7.75,2019-04-09,75.12,50.0,6.2,8.0
263,mchinji,MW,-13.8,32.89,2019-04-09,63.51,89.0,5.75,56.0
264,fortuna,ES,38.18,-1.13,2019-04-09,57.0,71.0,6.93,0.0
265,manado,ID,1.49,124.85,2019-04-09,96.8,50.0,3.36,40.0
266,ballina,IE,54.11,-9.15,2019-04-09,43.0,79.0,7.0,0.0
267,rawson,AR,-43.3,-65.11,2019-04-09,62.88,47.0,7.65,8.0
268,teya,MX,21.05,-89.07,2019-04-09,73.0,83.0,4.7,5.0
269,chuy,UY,-33.69,-53.46,2019-04-09,63.78,93.0,12.35,0.0
270,nalut,LY,31.86,10.98,2019-04-09,54.96,48.0,3.4,0.0
271,koryazhma,RU,61.32,47.16,2019-04-09,37.41,93.0,8.43,92.0
272,alofi,NU,-19.06,-169.92,2019-04-09,86.0,70.0,5.82,75.0
273,campbell river,CA,50.02,-125.24,2019-04-09,55.4,70.0,2.95,75.0
274,nouadhibou,MR,20.93,-17.03,2019-04-09,62.6,82.0,19.46,0.0
275,sampit,ID,-2.54,112.95,2019-04-09,86.82,95.0,4.63,12.0
276,lavrentiya,RU,65.58,-170.99,2019-04-09,18.96,100.0,7.65,92.0
277,egvekinot,RU,66.32,-179.17,2019-04-09,12.03,82.0,3.62,0.0
278,saint-jean-de-maurienne,FR,45.28,6.35,2019-04-09,41.0,93.0,2.24,0.0
279,iwanai,JP,42.97,140.51,2019-04-09,44.07,80.0,7.54,8.0
280,san cristobal,EC,-0.39,-78.55,2019-04-09,57.2,93.0,4.7,90.0
281,novo aripuana,BR,-5.12,-60.38,2019-04-09,77.37,87.0,3.29,56.0
282,macklin,CA,52.34,-109.94,2019-04-09,47.13,31.0,11.12,0.0
283,gizo,IL,31.8,34.94,2019-04-09,60.8,82.0,5.82,20.0
284,sayat,TM,38.78,63.88,2019-04-09,53.6,93.0,6.93,0.0
285,araouane,ML,18.9,-3.53,2019-04-09,57.48,28.0,3.4,0.0
286,west bay,GB,50.71,-2.76,2019-04-09,44.01,86.0,8.05,88.0
287,ndioum,SN,16.51,-14.65,2019-04-09,71.07,23.0,5.08,0.0
288,pisco,PE,-13.71,-76.2,2019-04-09,69.8,73.0,12.75,0.0
289,sorong,ID,-0.86,131.25,2019-04-09,84.12,98.0,8.77,24.0
290,muisne,EC,0.61,-80.02,2019-04-09,73.68,85.0,3.4,32.0
291,agua verde,MX,22.89,-105.97,2019-04-09,75.0,69.0,6.93,5.0
292,salinas,US,36.67,-121.66,2019-04-09,59.0,67.0,13.87,1.0
293,shingu,JP,33.72,135.99,2019-04-09,57.2,76.0,12.75,75.0
294,dubnany,CZ,48.92,17.09,2019-04-09,48.0,65.0,6.93,0.0
295,keetmanshoop,NA,-26.57,18.15,2019-04-09,64.4,39.0,1.12,0.0
296,mount pleasant,US,33.16,-94.97,2019-04-09,68.0,68.0,3.36,1.0
297,nyimba,ZM,-14.56,30.81,2019-04-09,74.76,59.0,5.86,0.0
298,lazaro cardenas,MX,28.39,-105.62,2019-04-09,82.4,14.0,10.29,5.0
299,obo,CF,5.39,26.49,2019-04-09,70.44,91.0,3.18,80.0
300,dakar,SN,14.69,-17.45,2019-04-09,71.6,82.0,13.87,0.0
301,waddan,LY,29.16,16.14,2019-04-09,44.7,48.0,4.07,0.0
302,sabzevar,IR,36.21,57.68,2019-04-09,46.14,93.0,2.84,20.0
303,reforma,MX,24.02,-104.65,2019-04-09,62.6,13.0,2.24,5.0
304,cooma,AU,-36.24,149.13,2019-04-09,50.0,53.0,5.82,40.0
305,awjilah,LY,29.14,21.3,2019-04-09,49.92,71.0,1.72,0.0
306,snezhnogorsk,RU,69.19,33.23,2019-04-09,17.6,85.0,2.24,75.0
307,linxi,CN,23.65,116.7,2019-04-09,86.0,62.0,6.71,0.0
308,bakel,SN,14.9,-12.46,2019-04-09,76.2,27.0,9.78,0.0
309,diego de almagro,CL,-26.39,-70.05,2019-04-09,58.47,91.0,2.39,0.0
310,havre-saint-pierre,CA,50.23,-63.6,2019-04-09,30.2,63.0,9.17,90.0
311,alvdal,NO,62.11,10.63,2019-04-09,1.4,91.0,1.12,76.0
312,kosum phisai,TH,16.25,103.07,2019-04-09,93.2,52.0,3.36,20.0
313,jiwani,PK,25.05,61.74,2019-04-09,76.83,96.0,3.74,32.0
314,davila,PH,18.47,120.58,2019-04-09,87.8,74.0,9.17,20.0
315,biryukove,UA,47.96,39.74,2019-04-09,51.8,81.0,15.66,0.0
316,cadereyta,MX,25.58,-99.98,2019-04-09,82.0,29.0,6.93,5.0
317,batemans bay,AU,-35.71,150.18,2019-04-09,64.99,53.0,3.0,0.0
318,alekseyevsk,RU,57.84,108.35,2019-04-09,36.06,56.0,10.45,56.0
319,afua,NG,5.27,7.87,2019-04-09,75.03,98.0,3.4,56.0
320,nome,US,30.04,-94.42,2019-04-09,70.0,73.0,6.42,1.0
321,sterling,US,39.0,-77.4,2019-04-09,66.2,29.0,11.41,1.0
322,karymskoye,RU,51.62,114.34,2019-04-09,44.01,37.0,8.99,0.0
323,taoudenni,ML,22.68,-3.98,2019-04-09,53.43,26.0,3.29,0.0
324,zaysan,KZ,47.47,84.87,2019-04-09,44.7,38.0,3.4,92.0
325,tirat karmel,IL,32.76,34.97,2019-04-09,55.99,91.0,4.97,92.0
326,lucea,JM,18.44,-78.17,2019-04-09,79.0,88.0,3.36,75.0
327,sinnai,IT,39.3,9.2,2019-04-09,55.4,93.0,2.24,20.0
328,tabou,CI,4.42,-7.36,2019-04-09,83.49,96.0,9.78,0.0
329,atikokan,CA,48.76,-91.62,2019-04-09,25.17,71.0,6.31,8.0
330,yanji,CN,42.89,129.5,2019-04-09,46.77,45.0,2.95,80.0
331,chateaubelair,VC,13.28,-61.25,2019-04-09,78.8,78.0,23.04,80.0
332,luena,AO,-11.78,19.91,2019-04-09,64.68,95.0,6.2,80.0
333,kigonsera,TZ,-10.8,35.08,2019-04-09,66.2,93.0,2.73,20.0
334,chengdu,CN,30.68,104.06,2019-04-09,68.0,77.0,15.66,40.0
335,timiryazevskiy,RU,47.05,39.61,2019-04-09,51.8,81.0,15.66,0.0
336,deputatskiy,RU,69.3,139.9,2019-04-09,19.23,84.0,2.84,32.0
337,tautira,PF,-17.73,-149.15,2019-04-09,82.4,78.0,6.93,75.0
338,sakaraha,MG,-22.91,44.53,2019-04-09,63.15,88.0,1.61,0.0
339,hasaki,JP,35.73,140.83,2019-04-09,45.0,93.0,6.93,75.0
340,batagay,RU,67.65,134.64,2019-04-09,30.03,58.0,4.41,0.0
341,namibe,AO,-15.19,12.15,2019-04-09,74.4,100.0,11.68,0.0
342,brandfort,ZA,-28.7,26.46,2019-04-09,55.4,87.0,6.93,48.0
343,beringovskiy,RU,63.05,179.32,2019-04-09,13.83,100.0,11.45,80.0
344,antsohihy,MG,-14.88,47.99,2019-04-09,70.08,97.0,2.95,24.0
345,manicore,BR,-5.81,-61.3,2019-04-09,75.84,93.0,2.06,36.0
346,talavera de la reina,ES,39.96,-4.83,2019-04-09,33.45,80.0,3.4,12.0
347,pochutla,MX,15.74,-96.47,2019-04-09,79.0,74.0,6.98,40.0
348,orotukan,RU,62.26,151.67,2019-04-09,30.3,95.0,3.74,56.0
349,bantacan,PH,7.62,126.13,2019-04-09,79.89,89.0,3.4,88.0
350,plattsburgh,US,44.69,-73.46,2019-04-09,33.01,100.0,5.97,90.0
351,xining,CN,36.62,101.77,2019-04-09,52.26,25.0,10.78,8.0
352,castelfidardo,IT,43.46,13.55,2019-04-09,51.01,93.0,3.36,20.0
353,ibra,OM,22.69,58.55,2019-04-09,68.28,56.0,0.16,0.0
354,sinnamary,GF,5.38,-52.96,2019-04-09,79.53,97.0,9.22,100.0
355,pitimbu,BR,-7.47,-34.81,2019-04-09,77.0,94.0,2.24,0.0
356,wuxue,CN,29.85,115.56,2019-04-09,55.05,96.0,7.76,76.0
357,peleduy,RU,59.63,112.75,2019-04-09,33.81,66.0,10.45,88.0
358,juneau,US,58.3,-134.42,2019-04-09,42.8,81.0,16.11,75.0
359,cody,US,44.53,-109.06,2019-04-09,46.0,86.0,16.11,90.0
360,la rioja,AR,-29.41,-66.86,2019-04-09,64.77,75.0,7.09,0.0
361,volodarskiy,RU,46.4,48.54,2019-04-09,48.0,81.0,4.47,0.0
362,buala,SB,-8.15,159.59,2019-04-09,84.39,88.0,7.76,48.0
363,bonito,BR,-1.36,-47.3,2019-04-09,73.14,97.0,3.18,92.0
364,vao,EE,59.1,26.19,2019-04-09,33.09,95.0,8.77,92.0
365,atambua,ID,-9.11,124.89,2019-04-09,83.4,94.0,6.08,24.0
366,nioro,GM,13.79,-15.05,2019-04-09,80.79,28.0,11.12,0.0
367,huron,US,44.36,-98.21,2019-04-09,42.8,74.0,11.41,90.0
368,guayaramerin,BO,-10.82,-65.36,2019-04-09,75.93,87.0,2.06,24.0
369,aksarka,RU,66.56,67.8,2019-04-09,3.93,72.0,4.74,0.0
370,sindor,RU,62.87,51.9,2019-04-09,28.23,92.0,9.78,80.0
371,constitucion,MX,23.99,-104.67,2019-04-09,62.6,13.0,2.24,5.0
372,belaya glina,RU,46.08,40.86,2019-04-09,51.01,91.0,11.68,0.0
373,luba,PH,17.32,120.7,2019-04-09,88.08,63.0,4.63,8.0
374,yerbogachen,RU,61.28,108.01,2019-04-09,35.88,74.0,10.22,88.0
375,lethem,GY,3.38,-59.8,2019-04-09,83.4,59.0,12.24,88.0
376,kiruna,SE,67.86,20.23,2019-04-09,19.4,73.0,2.24,76.0
377,oussouye,SN,12.49,-16.54,2019-04-09,71.6,83.0,2.24,0.0
378,sakaiminato,JP,35.55,133.23,2019-04-09,50.0,76.0,10.29,90.0
379,norsup,VU,-16.07,167.38,2019-04-09,80.7,98.0,6.2,68.0
380,medea,DZ,36.27,2.77,2019-04-09,50.0,81.0,4.7,20.0
381,smolenskaya,RU,44.79,38.8,2019-04-09,55.99,87.0,4.47,0.0
382,bubaque,GW,11.28,-15.83,2019-04-09,79.17,100.0,11.01,0.0
383,baijiantan,CN,45.63,85.18,2019-04-09,51.81,38.0,7.2,68.0
384,yaan,NG,7.38,8.57,2019-04-09,78.54,86.0,12.12,24.0
385,quatre cocos,MU,-20.21,57.76,2019-04-09,75.2,94.0,8.05,75.0
386,half moon bay,US,37.46,-122.43,2019-04-09,59.0,81.0,19.46,90.0
387,uyutne,UA,45.2,33.3,2019-04-09,50.73,94.0,7.99,68.0
388,tarko-sale,RU,64.92,77.78,2019-04-09,14.0,70.0,111.0,68.0
389,binzhou,CN,37.38,117.96,2019-04-09,55.99,51.0,1.01,0.0
390,ketchikan,US,55.34,-131.65,2019-04-09,44.6,87.0,16.11,90.0
391,kaeo,NZ,-35.1,173.78,2019-04-09,73.0,56.0,8.99,32.0
392,duldurga,RU,50.67,113.59,2019-04-09,40.2,28.0,8.77,0.0
393,botngard,NO,63.77,9.81,2019-04-09,27.0,68.0,8.05,20.0
394,casas grandes,MX,30.15,-110.24,2019-04-09,74.49,17.0,4.74,0.0
395,tacuarembo,UY,-31.73,-55.98,2019-04-09,60.81,76.0,10.67,0.0
396,leningradskiy,RU,69.38,178.42,2019-04-09,4.74,86.0,24.43,0.0
397,meulaboh,ID,4.14,96.13,2019-04-09,82.5,100.0,4.07,36.0
398,iacu,BR,-12.77,-40.21,2019-04-09,74.94,93.0,6.2,88.0
399,barkhan,PK,29.9,69.52,2019-04-09,61.71,63.0,3.51,8.0
400,zyryanka,RU,65.73,150.89,2019-04-09,33.36,67.0,2.95,8.0
401,bulgan,MN,48.81,103.53,2019-04-09,43.08,41.0,4.97,0.0
402,flin flon,CA,54.77,-101.88,2019-04-09,22.47,69.0,5.41,8.0
403,tomigusuku,JP,26.18,127.67,2019-04-09,71.6,88.0,19.46,75.0
404,fort nelson,CA,58.81,-122.69,2019-04-09,50.0,34.0,3.36,75.0
405,saint-augustin,FR,44.83,-0.61,2019-04-09,44.6,93.0,4.7,0.0
406,qeshm,IR,26.96,56.27,2019-04-09,78.8,83.0,4.7,75.0
407,vryburg,ZA,-26.96,24.73,2019-04-09,56.58,92.0,3.85,32.0
408,ca mau,VN,9.18,105.15,2019-04-09,88.71,75.0,4.74,0.0
409,blythe,US,33.61,-114.59,2019-04-09,79.0,21.0,23.04,1.0
410,noumea,NC,-22.28,166.46,2019-04-09,84.2,66.0,8.05,75.0
411,sungairaya,ID,0.7,108.9,2019-04-09,86.01,84.0,2.73,20.0
412,plettenberg bay,ZA,-34.05,23.37,2019-04-09,65.4,96.0,15.93,12.0
413,san carlos,VE,9.66,-68.59,2019-04-09,82.32,61.0,2.39,64.0
414,natal,BR,-5.81,-35.21,2019-04-09,78.8,78.0,3.36,20.0
415,lagos,NG,6.46,3.39,2019-04-09,78.8,88.0,2.24,20.0
416,jalingo,NG,10.3,10.93,2019-04-09,80.34,62.0,11.34,12.0
417,ende,ID,-8.84,121.65,2019-04-09,82.41,100.0,4.18,12.0
418,dodoma,TZ,-6.18,35.75,2019-04-09,68.0,88.0,3.96,20.0
419,nazas,MX,25.22,-104.11,2019-04-09,55.05,47.0,3.29,0.0
420,hambantota,LK,6.12,81.12,2019-04-09,87.8,74.0,2.24,20.0
421,shelburne,CA,44.08,-80.2,2019-04-09,41.0,100.0,4.7,90.0
422,bollnas,SE,61.35,16.39,2019-04-09,25.0,76.0,7.99,92.0
423,rudnogorsk,RU,57.27,103.75,2019-04-09,41.55,53.0,8.99,44.0
424,pevek,RU,69.7,170.27,2019-04-09,17.7,76.0,6.76,0.0
425,okha,RU,53.59,142.95,2019-04-09,29.58,99.0,14.03,0.0
426,pokrovskoye,RU,47.41,38.9,2019-04-09,51.0,91.0,11.23,20.0
427,husavik,CA,50.56,-96.99,2019-04-09,28.0,66.0,7.76,24.0
428,komsomolskiy,RU,67.55,63.78,2019-04-09,14.28,83.0,10.67,68.0
429,sijunjung,ID,-0.69,100.95,2019-04-09,79.17,92.0,2.39,12.0
430,kostino,BG,41.7,25.3,2019-04-09,54.0,93.0,10.29,90.0
431,le pont-de-claix,FR,45.12,5.7,2019-04-09,46.4,81.0,3.36,75.0
432,lagoa,PT,37.14,-8.45,2019-04-09,52.0,93.0,5.97,20.0
433,kalianget,ID,-7.35,109.91,2019-04-09,87.8,66.0,5.82,20.0
434,camrose,CA,53.01,-112.84,2019-04-09,53.01,39.0,3.36,90.0
435,san jose,PH,15.79,120.99,2019-04-09,87.0,65.0,3.18,32.0
436,gazli,UZ,40.13,63.45,2019-04-09,54.78,90.0,3.51,68.0
437,grasse,FR,43.66,6.92,2019-04-09,53.01,87.0,3.36,90.0
438,ambon,FR,47.55,-2.56,2019-04-09,46.99,93.0,10.29,0.0
439,okhotsk,RU,59.36,143.24,2019-04-09,36.78,67.0,4.63,12.0
440,muros,ES,42.77,-9.06,2019-04-09,55.0,93.0,2.24,40.0
441,prado,BR,-17.34,-39.22,2019-04-09,82.68,95.0,14.7,12.0
442,vila franca do campo,PT,37.72,-25.43,2019-04-09,60.8,87.0,16.11,40.0
443,gornyy,RU,51.76,48.54,2019-04-09,42.18,88.0,4.85,0.0
444,mersing,MY,2.43,103.84,2019-04-09,81.78,95.0,3.96,76.0
445,vedea,RO,44.78,24.62,2019-04-09,46.68,95.0,3.29,76.0
446,loncoche,CL,-39.37,-72.63,2019-04-09,57.2,100.0,2.24,90.0
447,pemba,MZ,-12.97,40.52,2019-04-09,75.2,94.0,8.05,40.0
448,luzhou,CN,28.89,105.45,2019-04-09,74.76,65.0,3.62,76.0
449,kysyl-syr,RU,63.9,122.77,2019-04-09,29.67,57.0,8.77,32.0
450,chachapoyas,PE,-6.23,-77.87,2019-04-09,58.65,93.0,1.16,24.0
451,ucluelet,CA,48.94,-125.55,2019-04-09,48.99,86.0,4.0,12.0
452,necochea,AR,-38.55,-58.74,2019-04-09,67.29,62.0,9.22,44.0
453,isagarh,IN,24.84,77.89,2019-04-09,83.58,36.0,7.2,0.0
454,pizarro,CO,4.95,-77.37,2019-04-09,77.1,95.0,3.29,0.0
455,stellenbosch,ZA,-33.93,18.87,2019-04-09,69.01,87.0,4.7,0.0
456,harper,US,30.3,-99.24,2019-04-09,73.99,49.0,3.36,1.0
457,carlisle,GB,54.89,-2.94,2019-04-09,36.0,100.0,4.7,0.0
458,yar-sale,RU,66.83,70.83,2019-04-09,13.38,88.0,14.03,56.0
459,kurumkan,RU,54.33,110.32,2019-04-09,25.53,72.0,2.62,0.0
460,russell,AR,-33.01,-68.8,2019-04-09,66.2,48.0,8.05,0.0
461,geraldton,CA,49.72,-86.95,2019-04-09,24.8,58.0,12.75,20.0
462,roma,IT,41.89,12.48,2019-04-09,51.01,81.0,4.7,0.0
463,tual,ID,-5.67,132.75,2019-04-09,84.21,100.0,6.08,44.0
464,ikungi,TZ,-5.13,34.77,2019-04-09,62.79,92.0,7.65,0.0
465,svetlogorsk,RU,53.14,59.15,2019-04-09,37.4,86.0,4.47,40.0
466,melo,UY,-32.37,-54.17,2019-04-09,61.8,80.0,11.12,0.0
467,dhrangadhra,IN,22.99,71.47,2019-04-09,79.35,71.0,9.33,12.0
468,karpathos,GR,35.51,27.21,2019-04-09,57.2,71.0,8.05,20.0
469,staraya russa,RU,57.99,31.36,2019-04-09,28.95,81.0,5.41,0.0
470,semnan,IR,35.58,53.39,2019-04-09,53.6,50.0,3.62,20.0
471,katsuura,JP,33.93,134.5,2019-04-09,50.0,93.0,14.99,90.0
472,gelemso,ET,8.81,40.52,2019-04-09,65.4,54.0,3.4,44.0
473,zaranj,AF,30.95,61.86,2019-04-09,66.2,52.0,9.17,0.0
474,flinders,AU,-34.58,150.85,2019-04-09,69.01,45.0,10.29,40.0
475,kandrian,PG,-6.21,149.55,2019-04-09,85.2,76.0,3.62,80.0
476,uusikaupunki,FI,60.8,21.41,2019-04-09,28.4,79.0,13.87,56.0
477,ambulu,ID,-8.35,113.61,2019-04-09,82.5,100.0,3.74,32.0
478,aleksandrov gay,RU,50.14,48.57,2019-04-09,43.53,84.0,5.19,0.0
479,pak phanang,TH,8.35,100.2,2019-04-09,89.6,59.0,3.36,20.0
480,itaituba,BR,-4.26,-55.99,2019-04-09,73.77,99.0,2.73,92.0
481,shakawe,BW,-18.36,21.84,2019-04-09,65.58,84.0,6.08,76.0
482,kijang,KR,35.24,129.21,2019-04-09,53.6,66.0,16.11,75.0
483,kudahuvadhoo,MV,2.67,72.89,2019-04-09,83.76,100.0,0.94,0.0
484,tazovskiy,RU,67.47,78.7,2019-04-09,15.81,89.0,21.85,80.0
485,paamiut,GL,61.99,-49.67,2019-04-09,39.21,69.0,7.43,8.0
486,oron,NG,4.81,8.23,2019-04-09,80.7,91.0,3.18,88.0
487,plasy,CZ,49.93,13.39,2019-04-09,39.0,93.0,4.7,56.0
488,tikapur,NP,28.53,81.12,2019-04-09,74.31,38.0,2.73,0.0
489,grand gaube,MU,-20.01,57.66,2019-04-09,75.2,94.0,8.05,75.0
490,caldas novas,BR,-17.75,-48.62,2019-04-09,68.55,93.0,4.18,12.0
491,adwa,ET,14.16,38.9,2019-04-09,53.25,56.0,2.62,0.0
492,hualmay,PE,-11.1,-77.61,2019-04-09,63.6,98.0,5.86,44.0
493,arlit,NE,18.74,7.39,2019-04-09,61.89,23.0,1.95,0.0
494,vagur,FO,61.47,-6.81,2019-04-09,43.98,100.0,13.47,92.0
495,valdez,US,61.13,-146.35,2019-04-09,44.6,65.0,4.7,40.0
496,poya,NC,-21.35,165.16,2019-04-09,78.81,98.0,7.99,12.0
497,delta del tigre,UY,-34.76,-56.41,2019-04-09,66.0,77.0,9.17,0.0
498,kyabram,AU,-36.31,145.05,2019-04-09,66.0,41.0,13.0,0.0
499,chitungwiza,ZW,-18.01,31.07,2019-04-09,58.47,73.0,4.63,32.0
500,krasnyy chikoy,RU,50.36,108.75,2019-04-09,42.45,28.0,3.74,0.0
501,nuuk,GL,64.17,-51.74,2019-04-09,39.2,51.0,12.75,0.0
502,kieta,PG,-6.22,155.63,2019-04-09,85.47,86.0,6.76,68.0
503,whitehorse,CA,60.72,-135.06,2019-04-09,42.8,35.0,13.87,75.0
504,camacha,PT,33.08,-16.33,2019-04-09,60.8,67.0,5.82,20.0
505,panaba,MX,21.28,-88.27,2019-04-09,69.81,97.0,2.95,92.0
506,gympie,AU,-26.2,152.66,2019-04-09,73.0,81.0,5.01,24.0
507,medicine hat,CA,50.04,-110.68,2019-04-09,50.0,43.0,6.93,90.0
508,sweetwater,US,32.47,-100.41,2019-04-09,78.8,28.0,8.05,1.0
509,laminusa,PH,5.55,120.91,2019-04-09,82.68,100.0,10.33,44.0
510,sabang,PH,13.72,123.58,2019-04-09,82.23,88.0,7.43,76.0
511,gladstone,AU,-23.84,151.26,2019-04-09,90.0,45.0,9.17,40.0
512,valparaiso,US,41.47,-87.06,2019-04-09,54.0,70.0,16.11,1.0
513,cordoba,CO,5.59,-73.79,2019-04-09,53.88,95.0,1.39,100.0
514,suntar,RU,62.16,117.65,2019-04-09,34.71,72.0,11.68,92.0
515,colares,PT,38.8,-9.45,2019-04-09,55.99,87.0,5.82,75.0
516,juba,EE,57.82,26.93,2019-04-09,33.01,85.0,5.82,76.0
517,kawalu,ID,-7.38,108.21,2019-04-09,78.54,80.0,1.83,12.0
518,miri,NG,10.31,9.75,2019-04-09,73.05,69.0,4.07,0.0
519,bemidji,US,47.48,-94.89,2019-04-09,28.99,68.0,5.82,1.0
520,biswan,IN,27.49,81.0,2019-04-09,76.92,60.0,12.24,0.0
521,victor harbor,AU,-35.55,138.62,2019-04-09,64.99,34.0,8.05,0.0
522,ramhormoz,IR,31.28,49.6,2019-04-09,66.2,72.0,4.7,20.0
523,marshfield,US,42.09,-70.71,2019-04-09,41.0,100.0,5.53,90.0
524,mabaruma,GY,8.2,-59.78,2019-04-09,77.28,86.0,6.87,64.0
525,kahului,US,20.89,-156.47,2019-04-09,80.6,54.0,14.99,40.0
526,kutum,SD,14.2,24.66,2019-04-09,64.59,29.0,8.21,8.0
527,mikuni,JP,36.22,136.15,2019-04-09,44.6,87.0,3.36,90.0
528,sesheke,NA,-17.47,24.29,2019-04-09,64.95,92.0,3.18,80.0
529,labelle,US,26.76,-81.44,2019-04-09,75.0,88.0,3.36,90.0
530,matane,CA,48.83,-67.52,2019-04-09,30.0,53.0,2.24,90.0
531,garowe,SO,8.41,48.48,2019-04-09,70.44,93.0,5.64,92.0
532,kavaratti,IN,10.57,72.64,2019-04-09,84.57,100.0,6.42,44.0
533,hirado,JP,33.32,129.49,2019-04-09,62.6,77.0,16.11,75.0
534,gorele,TR,41.03,39.0,2019-04-09,63.0,63.0,9.17,75.0
535,vytegra,RU,61.01,36.45,2019-04-09,28.5,78.0,3.74,48.0
536,horsham,AU,-36.71,142.2,2019-04-09,59.73,78.0,5.19,0.0
537,srandakan,ID,-7.94,110.25,2019-04-09,83.49,88.0,4.29,12.0
538,phibun mangsahan,TH,15.24,105.23,2019-04-09,95.0,53.0,6.93,0.0
539,taguatinga,BR,-15.83,-48.06,2019-04-09,69.8,94.0,2.24,40.0
540,komono,JP,35.05,136.48,2019-04-09,54.0,93.0,8.05,75.0
541,kaniama,CD,-7.57,24.18,2019-04-09,67.02,99.0,2.51,88.0
542,port hardy,CA,50.7,-127.42,2019-04-09,46.4,75.0,6.93,90.0
543,sola,NO,58.89,5.65,2019-04-09,36.0,86.0,3.36,0.0
544,beloha,MG,-25.17,45.06,2019-04-09,69.0,85.0,4.41,0.0
545,oranjemund,ZA,-28.55,16.43,2019-04-09,60.63,98.0,2.62,92.0
546,clinton,US,41.84,-90.19,2019-04-09,57.99,66.0,13.87,90.0
547,buraydah,SA,26.33,43.97,2019-04-09,64.4,100.0,9.17,75.0
548,churhat,IN,24.43,81.67,2019-04-09,85.2,42.0,4.52,0.0
549,lorengau,PG,-2.02,147.27,2019-04-09,83.67,100.0,3.96,12.0
550,jalu,LY,29.03,21.55,2019-04-09,50.28,62.0,2.73,0.0
551,aksu,KZ,52.04,76.93,2019-04-09,46.4,52.0,11.18,0.0
